<?xml version="1.0" encoding="utf-8"?>
<nextbus>
	<station>
		<name>Resecentrum</name>
		<url>http://wap.nastabuss.se/its4wap/QueryForm.aspx?hpl=Resecentrum+(V%C3%A4xj%C3%B6)</url>
		<localurl>http://crossplatform.co.nf/sample%20html/Resecentrum+(V%C3%A4xj%C3%B6).html</localurl>
		<latitude>56.87677739999999</latitude>
		<longitude>14.80657550</longitude>
	</station>
	<station>
		<name>Lunnabyvägen</name>
		<url>http://wap.nastabuss.se/its4wap/QueryForm.aspx?hpl=Lunnabyv%C3%A4gen+(V%C3%A4xj%C3%B6)</url>
		<localurl>http://crossplatform.co.nf/sample%20html/Lunnabyv%C3%A4gen+(V%C3%A4xj%C3%B6).html</localurl>
		<latitude>56.9127830</latitude>
		<longitude>14.74299680</longitude>
	</station>
	<station>
		<name>Slottsruinen</name>
		<url>http://wap.nastabuss.se/its4wap/QueryForm.aspx?hpl=Slottsruinen+(V%C3%A4xj%C3%B6)</url>
		<localurl>http://crossplatform.co.nf/sample%20html/Slottsruinen+(V%C3%A4xj%C3%B6).html</localurl>
		<latitude>56.9387270</latitude>
		<longitude>14.79787070</longitude>
	</station>
	<station>
		<name>Evedal</name>
		<url>http://wap.nastabuss.se/its4wap/QueryForm.aspx?hpl=Evedal+(V%C3%A4xj%C3%B6)</url>
		<localurl>http://crossplatform.co.nf/sample%20html/Evedal+(V%C3%A4xj%C3%B6).html</localurl>
		<latitude>56.92177890000001</latitude>
		<longitude>14.82015180</longitude>
	</station>
	<station>
		<name>Lenhovdavägen</name>
		<url>http://wap.nastabuss.se/its4wap/QueryForm.aspx?hpl=Lenhovdav%C3%A4gen+(V%C3%A4xj%C3%B6)</url>
		<localurl>http://crossplatform.co.nf/sample%20html/Lenhovdav%C3%A4gen+(V%C3%A4xj%C3%B6).html</localurl>
		<latitude>56.91869459999999</latitude>
		<longitude>14.85939390</longitude>
	</station>
	<station>
		<name>Mariakyrkan</name>
		<url>http://wap.nastabuss.se/its4wap/QueryForm.aspx?hpl=Mariakyrkan+(V%C3%A4xj%C3%B6)</url>
		<localurl>http://crossplatform.co.nf/sample%20html/Mariakyrkan+(V%C3%A4xj%C3%B6).html</localurl>
		<latitude>56.89849210</latitude>
		<longitude>14.80094080</longitude>
	</station>
	<station>
		<name>Grand Samarkand</name>
		<url>http://wap.nastabuss.se/its4wap/QueryForm.aspx?hpl=Grand+Samarkand+(V%C3%A4xj%C3%B6)</url>
		<localurl>http://crossplatform.co.nf/sample%20html/Grand+Samarkand+(V%C3%A4xj%C3%B6).html</localurl>
		<latitude>56.88271520</latitude>
		<longitude>14.76607880</longitude>
	</station>
	<station>
		<name>Tärnvägen</name>
		<url>http://wap.nastabuss.se/its4wap/QueryForm.aspx?hpl=T%C3%A4rnv%C3%A4gen+(V%C3%A4xj%C3%B6)</url>
		<localurl>http://crossplatform.co.nf/sample%20html/T%C3%A4rnv%C3%A4gen+(V%C3%A4xj%C3%B6).html</localurl>
		<latitude>56.88218879999999</latitude>
		<longitude>14.85201760</longitude>
	</station>
	<station>
		<name>Universitetsplatsen</name>
		<url>http://wap.nastabuss.se/its4wap/QueryForm.aspx?hpl=Universitetspl.+(V%C3%A4xj%C3%B6)</url>
		<localurl>http://crossplatform.co.nf/sample%20html/Universitetspl.+(V%C3%A4xj%C3%B6).html</localurl>
		<latitude>56.85510960</latitude>
		<longitude>14.83187270</longitude>
	</station>
	<station>
		<name>Slottstaden</name>
		<url>http://wap.nastabuss.se/its4wap/QueryForm.aspx?hpl=Slottstaden+(V%C3%A4xj%C3%B6)</url>
		<localurl>http://crossplatform.co.nf/sample%20html/Slottstaden+(V%C3%A4xj%C3%B6).html</localurl>
		<latitude>56.85416880</latitude>
		<longitude>14.83445430</longitude>
	</station>
	<station>
		<name>Georg Lückligsväg</name>
		<url>http://wap.nastabuss.se/its4wap/QueryForm.aspx?hpl=Georg+L%C3%BCckligsv%C3%A4g+(V%C3%A4xj%C3%B6)</url>
		<localurl>http://crossplatform.co.nf/sample%20html/Georg+L%C3%BCckligsv%C3%A4g+(V%C3%A4xj%C3%B6).html</localurl>
		<latitude>56.8513770</latitude>
		<longitude>14.83229750</longitude>
	</station>
	<station>
		<name>Fredrik Bondes väg</name>
		<url>http://wap.nastabuss.se/its4wap/QueryForm.aspx?hpl=Fredrik+Bondes+v%C3%A4g+(V%C3%A4xj%C3%B6)</url>
		<localurl>http://crossplatform.co.nf/sample%20html/Fredrik+Bondes+v%C3%A4g+(V%C3%A4xj%C3%B6).html</localurl>
		<latitude>56.85091290</latitude>
		<longitude>14.82578630</longitude>
	</station>
	<station>
		<name>Trummenvägen</name>
		<url>http://wap.nastabuss.se/its4wap/QueryForm.aspx?hpl=Trummenv%C3%A4gen+(V%C3%A4xj%C3%B6)</url>
		<localurl>http://crossplatform.co.nf/sample%20html/Trummenv%C3%A4gen+(V%C3%A4xj%C3%B6).html</localurl>
		<latitude>56.85825770</latitude>
		<longitude>14.82333180</longitude>
	</station>
	<station>
		<name>Löparvägen</name>
		<url>http://wap.nastabuss.se/its4wap/QueryForm.aspx?hpl=L%C3%B6parv%C3%A4gen+(V%C3%A4xj%C3%B6)</url>
		<localurl>http://crossplatform.co.nf/sample%20html/L%C3%B6parv%C3%A4gen+(V%C3%A4xj%C3%B6).html</localurl>
		<latitude>56.8410990</latitude>
		<longitude>14.80650320</longitude>
	</station>
	<station>
		<name>Kantorsvägen</name>
		<url>http://wap.nastabuss.se/its4wap/QueryForm.aspx?hpl=Kantorsv%C3%A4gen+(V%C3%A4xj%C3%B6)</url>
		<localurl>http://crossplatform.co.nf/sample%20html/Kantorsv%C3%A4gen+(V%C3%A4xj%C3%B6).html</localurl>
		<latitude>56.90570169999999</latitude>
		<longitude>14.73899620</longitude>
	</station>
	<station>
		<name>Kurortsvägen</name>
		<url>http://wap.nastabuss.se/its4wap/QueryForm.aspx?hpl=Kurortsv%C3%A4gen+(V%C3%A4xj%C3%B6)</url>
		<localurl>http://crossplatform.co.nf/sample%20html/Kurortsv%C3%A4gen+(V%C3%A4xj%C3%B6).html</localurl>
		<latitude>56.92181249999999</latitude>
		<longitude>14.80404160</longitude>
	</station>
	<station>
		<name>Nebulosavägen</name>
		<url>http://wap.nastabuss.se/its4wap/QueryForm.aspx?hpl=Nebulosav%C3%A4gen+(V%C3%A4xj%C3%B6)</url>
		<localurl>http://crossplatform.co.nf/sample%20html/Nebulosav%C3%A4gen+(V%C3%A4xj%C3%B6).html</localurl>
		<latitude>56.91968830</latitude>
		<longitude>14.81019050</longitude>
	</station>
	<station>
		<name>Deltavägen</name>
		<url>http://wap.nastabuss.se/its4wap/QueryForm.aspx?hpl=Deltav%C3%A4gen+(V%C3%A4xj%C3%B6)</url>
		<localurl>http://crossplatform.co.nf/sample%20html/Deltav%C3%A4gen+(V%C3%A4xj%C3%B6).html</localurl>
		<latitude>56.90244149999999</latitude>
		<longitude>14.83014810</longitude>
	</station>
	<station>
		<name>Blåbärsvägen</name>
		<url>http://wap.nastabuss.se/its4wap/QueryForm.aspx?hpl=Bl%C3%A5b%C3%A4rsv%C3%A4gen+(V%C3%A4xj%C3%B6)</url>
		<localurl>http://crossplatform.co.nf/sample%20html/Bl%C3%A5b%C3%A4rsv%C3%A4gen+(V%C3%A4xj%C3%B6).html</localurl>
		<latitude>56.89608960</latitude>
		<longitude>14.8195160</longitude>
	</station>
	<station>
		<name>Markententerivägen</name>
		<url>http://wap.nastabuss.se/its4wap/QueryForm.aspx?hpl=Markententeriv.+(V%C3%A4xj%C3%B6)</url>
		<localurl>http://crossplatform.co.nf/sample%20html/Markententeriv.+(V%C3%A4xj%C3%B6).html</localurl>
		<latitude>56.87731110</latitude>
		<longitude>14.77283890</longitude>
	</station>
	<station>
		<name>G:a Risingevägen</name>
		<url>http://wap.nastabuss.se/its4wap/QueryForm.aspx?hpl=G%3aa+Risingev.+(V%C3%A4xj%C3%B6)</url>
		<localurl>http://crossplatform.co.nf/sample%20html/G%253aa+Risingev.+(V%C3%A4xj%C3%B6).html</localurl>
		<latitude>56.87960620</latitude>
		<longitude>14.82208610</longitude>
	</station>
	<station>
		<name>Simhallen</name>
		<url>http://wap.nastabuss.se/its4wap/QueryForm.aspx?hpl=Simhallen+(V%C3%A4xj%C3%B6)</url>
		<localurl>http://crossplatform.co.nf/sample%20html/Simhallen+(V%C3%A4xj%C3%B6).html</localurl>
		<latitude>56.87300020</latitude>
		<longitude>14.81832030</longitude>
	</station>
	<station>
		<name>Teleborg C</name>
		<url>http://wap.nastabuss.se/its4wap/QueryForm.aspx?hpl=Teleborg+C+(V%C3%A4xj%C3%B6)</url>
		<localurl>http://crossplatform.co.nf/sample%20html/Teleborg+C+(V%C3%A4xj%C3%B6).html</localurl>
		<latitude>56.85414790000001</latitude>
		<longitude>14.82147260</longitude>
	</station>
	<station>
		<name>Ö Räppevägen</name>
		<url>http://wap.nastabuss.se/its4wap/QueryForm.aspx?hpl=%C3%96+R%C3%A4ppev%C3%A4gen+(V%C3%A4xj%C3%B6)</url>
		<localurl>http://crossplatform.co.nf/sample%20html/%C3%96+R%C3%A4ppev%C3%A4gen+(V%C3%A4xj%C3%B6).html</localurl>
		<latitude>56.87895090</latitude>
		<longitude>14.74244870</longitude>
	</station>
	<station>
		<name>Hovshaga C</name>
		<url>http://wap.nastabuss.se/its4wap/QueryForm.aspx?hpl=Hovshaga+C+(V%C3%A4xj%C3%B6)</url>
		<localurl>http://crossplatform.co.nf/sample%20html/Hovshaga+C+(V%C3%A4xj%C3%B6).html</localurl>
		<latitude>56.90911910</latitude>
		<longitude>14.79574690</longitude>
	</station>
	<station>
		<name>Björksätravägen</name>
		<url>http://wap.nastabuss.se/its4wap/QueryForm.aspx?hpl=Bj%C3%B6rks%C3%A4trav.+(V%C3%A4xj%C3%B6)</url>
		<localurl>http://crossplatform.co.nf/sample%20html/Bj%C3%B6rks%C3%A4trav.+(V%C3%A4xj%C3%B6).html</localurl>
		<latitude>56.90825470</latitude>
		<longitude>14.80254980</longitude>
	</station>
	<station>
		<name>Ekebovägen</name>
		<url>http://wap.nastabuss.se/its4wap/QueryForm.aspx?hpl=Ekebov%C3%A4gen+(V%C3%A4xj%C3%B6)</url>
		<localurl>http://crossplatform.co.nf/sample%20html/Ekebov%C3%A4gen+(V%C3%A4xj%C3%B6).html</localurl>
		<latitude>56.88657650</latitude>
		<longitude>14.81349960</longitude>
	</station>
	<station>
		<name>Arabygatan</name>
		<url>http://wap.nastabuss.se/its4wap/QueryForm.aspx?hpl=Arabygatan+(V%C3%A4xj%C3%B6)</url>
		<localurl>http://crossplatform.co.nf/sample%20html/Arabygatan+(V%C3%A4xj%C3%B6).html</localurl>
		<latitude>56.8881570</latitude>
		<longitude>14.78233430</longitude>
	</station>
	<station>
		<name>Dalbo C</name>
		<url>http://wap.nastabuss.se/its4wap/QueryForm.aspx?hpl=Dalbo+C+(V%C3%A4xj%C3%B6)</url>
		<localurl>http://crossplatform.co.nf/sample%20html/Dalbo+C+(V%C3%A4xj%C3%B6).html</localurl>
		<latitude>56.89060989999999</latitude>
		<longitude>14.79905230</longitude>
	</station>
	<station>
		<name>Arenastaden Södra</name>
		<url>http://wap.nastabuss.se/its4wap/QueryForm.aspx?hpl=Arenastaden+S%C3%B6dra+(V%C3%A4xj%C3%B6)</url>
		<localurl>http://crossplatform.co.nf/sample%20html/Arenastaden+S%C3%B6dra+(V%C3%A4xj%C3%B6).html</localurl>
		<latitude>56.87889910</latitude>
		<longitude>14.77699420</longitude>
	</station>
	<station>
		<name>Bokelundsvägen</name>
		<url>http://wap.nastabuss.se/its4wap/QueryForm.aspx?hpl=Bokelundsv%C3%A4gen+(V%C3%A4xj%C3%B6)</url>
		<localurl>http://crossplatform.co.nf/sample%20html/Bokelundsv%C3%A4gen+(V%C3%A4xj%C3%B6).html</localurl>
		<latitude>56.89903970</latitude>
		<longitude>14.79757820</longitude>
	</station>
	<station>
		<name>Hovslund, Kungsvägen</name>
		<url>http://wap.nastabuss.se/its4wap/QueryForm.aspx?hpl=Hovslund%2c+Kungsv%C3%A4gen+(V%C3%A4xj%C3%B6)</url>
		<localurl>http://crossplatform.co.nf/sample%20html/Hovslund%252c+Kungsv%C3%A4gen+(V%C3%A4xj%C3%B6).html</localurl>
		<latitude>56.89157690</latitude>
		<longitude>14.80316120</longitude>
	</station>
	<station>
		<name>Prebendevägen</name>
		<url>http://wap.nastabuss.se/its4wap/QueryForm.aspx?hpl=Prebendev%C3%A4gen+(V%C3%A4xj%C3%B6)</url>
		<localurl>http://crossplatform.co.nf/sample%20html/Prebendev%C3%A4gen+(V%C3%A4xj%C3%B6).html</localurl>
		<latitude>56.88534190000001</latitude>
		<longitude>14.82317870</longitude>
	</station>
	<station>
		<name>Västerport</name>
		<url>http://wap.nastabuss.se/its4wap/QueryForm.aspx?hpl=V%C3%A4sterport+(V%C3%A4xj%C3%B6)</url>
		<localurl>http://crossplatform.co.nf/sample%20html/V%C3%A4sterport+(V%C3%A4xj%C3%B6).html</localurl>
		<latitude>56.87883140</latitude>
		<longitude>14.78296660</longitude>
	</station>
	<station>
		<name>Stormarknaden</name>
		<url>http://wap.nastabuss.se/its4wap/QueryForm.aspx?hpl=Stormarknaden+(V%C3%A4xj%C3%B6)</url>
		<localurl>http://crossplatform.co.nf/sample%20html/Stormarknaden+(V%C3%A4xj%C3%B6).html</localurl>
		<latitude>56.8855850</latitude>
		<longitude>14.76343980</longitude>
	</station>
	<station>
		<name>Vänortsvägen</name>
		<url>http://wap.nastabuss.se/its4wap/QueryForm.aspx?hpl=V%C3%A4nortsv%C3%A4gen+(V%C3%A4xj%C3%B6)</url>
		<localurl>http://crossplatform.co.nf/sample%20html/V%C3%A4nortsv%C3%A4gen+(V%C3%A4xj%C3%B6).html</localurl>
		<latitude>56.89039660</latitude>
		<longitude>14.78934480</longitude>
	</station>
	<station>
		<name>Islandsvägen</name>
		<url>http://wap.nastabuss.se/its4wap/QueryForm.aspx?hpl=Islandsv%C3%A4gen+(V%C3%A4xj%C3%B6)</url>
		<localurl>http://crossplatform.co.nf/sample%20html/Islandsv%C3%A4gen+(V%C3%A4xj%C3%B6).html</localurl>
		<latitude>56.89334479999999</latitude>
		<longitude>14.78745970</longitude>
	</station>
</nextbus>